{
"type": "FeatureCollection",
"crs": { "type": "name", "properties": { "name": "urn:ogc:def:crs:OGC:1.3:CRS84" } },
"features": [
{ "type": "Feature", "properties": { "OBJECTID": 1, "NAME_OF_SITE": "8th & Diamond Playground", "ADDRESS": "8th & Diamond Streets", "ZIP": "19122", "PHONE": "215-685-2761", "label": "Location" }, "geometry": { "type": "Point", "coordinates": [ -75.147131527170501, 39.983487470664997 ] } },
{ "type": "Feature", "properties": { "OBJECTID": 2, "NAME_OF_SITE": "48th & Woodland Playground", "ADDRESS": "1414 S. 47th Street ", "ZIP": "19143", "PHONE": "215-685-2692", "label": "Location" }, "geometry": { "type": "Point", "coordinates": [ -75.210032984993205, 39.9425899540148 ] } },
{ "type": "Feature", "properties": { "OBJECTID": 3, "NAME_OF_SITE": "American Legion Playground", "ADDRESS": "Torresdale & Devereaux St.", "ZIP": "19135", "PHONE": "215-685-8733", "label": "Location" }, "geometry": { "type": "Point", "coordinates": [ -75.055688831218305, 40.019513601061497 ] } },
{ "type": "Feature", "properties": { "OBJECTID": 4, "NAME_OF_SITE": "Amos Playground", "ADDRESS": "1817-59 N. 16th Street ", "ZIP": "19121", "PHONE": "215-685-2708", "label": "Location" }, "geometry": { "type": "Point", "coordinates": [ -75.160635355809305, 39.981066480611801 ] } },
{ "type": "Feature", "properties": { "OBJECTID": 5, "NAME_OF_SITE": "Athletic Recreation Center", "ADDRESS": "1401 N. 26th Street ", "ZIP": "19121", "PHONE": "215-685-2709", "label": "Location" }, "geometry": { "type": "Point", "coordinates": [ -75.178118306085295, 39.977008301050603 ] } },
{ "type": "Feature", "properties": { "OBJECTID": 6, "NAME_OF_SITE": "Belfield Recreation Center", "ADDRESS": "21st & Chew Avenue ", "ZIP": "19138", "PHONE": "215-685-2220", "label": "Location" }, "geometry": { "type": "Point", "coordinates": [ -75.156002482927505, 40.041287641000302 ] } },
{ "type": "Feature", "properties": { "OBJECTID": 7, "NAME_OF_SITE": "Boyle Playground", "ADDRESS": "Kelvin & Napier Streets ", "ZIP": "19116", "PHONE": "215-685-0367", "label": "Location" }, "geometry": { "type": "Point", "coordinates": [ -75.006935918872401, 40.124295305317098 ] } },
{ "type": "Feature", "properties": { "OBJECTID": 8, "NAME_OF_SITE": "Bridesburg Recreation Center", "ADDRESS": "Richmond & Ash Streets ", "ZIP": "19137", "PHONE": "215-685-1247", "label": "Location" }, "geometry": { "type": "Point", "coordinates": [ -75.067369095539306, 40.000438966438601 ] } },
{ "type": "Feature", "properties": { "OBJECTID": 9, "NAME_OF_SITE": "Capitolo Recreation Center", "ADDRESS": "9th & Wharton Streets ", "ZIP": "19147", "PHONE": "215-685-1883", "label": "Location" }, "geometry": { "type": "Point", "coordinates": [ -75.159144212975406, 39.933058985056299 ] } },
{ "type": "Feature", "properties": { "OBJECTID": 10, "NAME_OF_SITE": "Carmella Playground", "ADDRESS": "Tulip & Wakeling Streets ", "ZIP": "19124", "PHONE": "215-685-1235", "label": "Location" }, "geometry": { "type": "Point", "coordinates": [ -75.072869059421805, 40.0114044328568 ] } },
{ "type": "Feature", "properties": { "OBJECTID": 11, "NAME_OF_SITE": "CB Moore Recreation Center", "ADDRESS": "2551 N. 22nd Street ", "ZIP": "19132", "PHONE": "215-685-9755", "label": "Location" }, "geometry": { "type": "Point", "coordinates": [ -75.167944236146596, 39.993623670789098 ] } },
{ "type": "Feature", "properties": { "OBJECTID": 12, "NAME_OF_SITE": "Cherashore Playground", "ADDRESS": "10th & Chew Ave ", "ZIP": "19141", "PHONE": "215-685-2897", "label": "Location" }, "geometry": { "type": "Point", "coordinates": [ -75.1376364212841, 40.038952779670403 ] } },
{ "type": "Feature", "properties": { "OBJECTID": 13, "NAME_OF_SITE": "Chew Playground", "ADDRESS": "19th Street & Washington Ave. ", "ZIP": "19146", "PHONE": "215-685-6596", "label": "Location" }, "geometry": { "type": "Point", "coordinates": [ -75.174753621308298, 39.938835421558302 ] } },
{ "type": "Feature", "properties": { "OBJECTID": 14, "NAME_OF_SITE": "Christy Recreation Center", "ADDRESS": "56th & Christian Streets ", "ZIP": "19143", "PHONE": "215-685-1997", "label": "Location" }, "geometry": { "type": "Point", "coordinates": [ -75.235481596969095, 39.948443063017301 ] } },
{ "type": "Feature", "properties": { "OBJECTID": 15, "NAME_OF_SITE": "Clemente Playground", "ADDRESS": "1800 Wallace Street ", "ZIP": "19130", "PHONE": "215-685-2760", "label": "Location" }, "geometry": { "type": "Point", "coordinates": [ -75.168036645237507, 39.966023839389898 ] } },
{ "type": "Feature", "properties": { "OBJECTID": 16, "NAME_OF_SITE": "Cohocksink Recreation Center", "ADDRESS": "Cedar & Cambria Streets ", "ZIP": "19134", "PHONE": "215-685-9884", "label": "Location" }, "geometry": { "type": "Point", "coordinates": [ -75.1134526435346, 39.984114168286503 ] } },
{ "type": "Feature", "properties": { "OBJECTID": 17, "NAME_OF_SITE": "Conestoga Playground", "ADDRESS": "53rd & Media Streets ", "ZIP": "19131", "PHONE": "215-685-0146", "label": "Location" }, "geometry": { "type": "Point", "coordinates": [ -75.227947490462597, 39.975624927052799 ] } },
{ "type": "Feature", "properties": { "OBJECTID": 18, "NAME_OF_SITE": "Cruz Recreation Center", "ADDRESS": "6th & Master Streets ", "ZIP": "19122", "PHONE": "215-685-2759", "label": "Location" }, "geometry": { "type": "Point", "coordinates": [ -75.146085115330493, 39.972842511445499 ] } },
{ "type": "Feature", "properties": { "OBJECTID": 19, "NAME_OF_SITE": "East Poplar Playground", "ADDRESS": "800 N. 8th Street ", "ZIP": "19123", "PHONE": "215-686-1786", "label": "Location" }, "geometry": { "type": "Point", "coordinates": [ -75.150963014982295, 39.966163173363398 ] } },
{ "type": "Feature", "properties": { "OBJECTID": 20, "NAME_OF_SITE": "Emanuel Recreation Center", "ADDRESS": "8500 Pickering Avenue ", "ZIP": "19150", "PHONE": "215-685-9253", "label": "Location" }, "geometry": { "type": "Point", "coordinates": [ -75.1748885500661, 40.081721121470501 ] } },
{ "type": "Feature", "properties": { "OBJECTID": 21, "NAME_OF_SITE": "Feltonville Recreation Center", "ADDRESS": "Ella Street & Wyoming Ave ", "ZIP": "19120", "PHONE": "215-685-9150", "label": "Location" }, "geometry": { "type": "Point", "coordinates": [ -75.121541344609, 40.0212190278476 ] } },
{ "type": "Feature", "properties": { "OBJECTID": 22, "NAME_OF_SITE": "Ferko Playground", "ADDRESS": "J & Cayuga Streets ", "ZIP": "19124", "PHONE": "215-685-1224", "label": "Location" }, "geometry": { "type": "Point", "coordinates": [ -75.105452994799606, 40.014391240649402 ] } },
{ "type": "Feature", "properties": { "OBJECTID": 23, "NAME_OF_SITE": "J. Finnegan Playground", "ADDRESS": "69th & Grovers Street ", "ZIP": "19142", "PHONE": "215-685-4191", "label": "Location" }, "geometry": { "type": "Point", "coordinates": [ -75.230199979850994, 39.915816369309503 ] } },
{ "type": "Feature", "properties": { "OBJECTID": 24, "NAME_OF_SITE": "Fishtown Recreation Center", "ADDRESS": "E. Montgomery & Girard Ave ", "ZIP": "19125", "PHONE": "215-685-9885", "label": "Location" }, "geometry": { "type": "Point", "coordinates": [ -75.127104953311104, 39.971359875746799 ] } },
{ "type": "Feature", "properties": { "OBJECTID": 25, "NAME_OF_SITE": "Fitzpatrick Playground", "ADDRESS": "Academy & Torrey ", "ZIP": "19154", "PHONE": "215-685-9395", "label": "Location" }, "geometry": { "type": "Point", "coordinates": [ -74.971019198625896, 40.0964017929128 ] } },
{ "type": "Feature", "properties": { "OBJECTID": 26, "NAME_OF_SITE": "FJ Myers Recreation Ctr.", "ADDRESS": "5803 Kingsessing Ave. ", "ZIP": "19143", "PHONE": "215-685-2693", "label": "Location" }, "geometry": { "type": "Point", "coordinates": [ -75.227369623202193, 39.934663620355501 ] } },
{ "type": "Feature", "properties": { "OBJECTID": 27, "NAME_OF_SITE": "Fox Chase Recreation Center ", "ADDRESS": "Rockwell & Ridgeway St ", "ZIP": "19111", "PHONE": "215-685-0575", "label": "Location" }, "geometry": { "type": "Point", "coordinates": [ -75.082732867047696, 40.0747378775608 ] } },
{ "type": "Feature", "properties": { "OBJECTID": 28, "NAME_OF_SITE": "Francisville Playground", "ADDRESS": "1732 Francis Street ", "ZIP": "19121", "PHONE": "215-685-2762", "label": "Location" }, "geometry": { "type": "Point", "coordinates": [ -75.166043044755597, 39.9684087119997 ] } },
{ "type": "Feature", "properties": { "OBJECTID": 29, "NAME_OF_SITE": "Gifford Playground", "ADDRESS": "575 Tomlinson Road ", "ZIP": "19116", "PHONE": "215-685-0377", "label": "Location" }, "geometry": { "type": "Point", "coordinates": [ -75.025737954704198, 40.114653562490098 ] } },
{ "type": "Feature", "properties": { "OBJECTID": 30, "NAME_OF_SITE": "Glavin Playground", "ADDRESS": "Almond & Westmoreland St ", "ZIP": "19134", "PHONE": "215-685-9898", "label": "Location" }, "geometry": { "type": "Point", "coordinates": [ -75.101283696919495, 39.986831116708998 ] } },
{ "type": "Feature", "properties": { "OBJECTID": 31, "NAME_OF_SITE": "Guerin Recreation Center", "ADDRESS": "16th & Jackson Streets ", "ZIP": "19145", "PHONE": "215-685-1894", "label": "Location" }, "geometry": { "type": "Point", "coordinates": [ -75.173229294790801, 39.923565880229397 ] } },
{ "type": "Feature", "properties": { "OBJECTID": 32, "NAME_OF_SITE": "Hollow Recreation Center", "ADDRESS": "Wayne & Logan Streets ", "ZIP": "19144", "PHONE": "215-685-2195", "label": "Location" }, "geometry": { "type": "Point", "coordinates": [ -75.166117204790993, 40.024545510018399 ] } },
{ "type": "Feature", "properties": { "OBJECTID": 33, "NAME_OF_SITE": "Hillside Recreation Center", "ADDRESS": "201 Fountain Street ", "ZIP": "19128", "PHONE": "215-685-2595", "label": "Location" }, "geometry": { "type": "Point", "coordinates": [ -75.229839549928201, 40.0337270744132 ] } },
{ "type": "Feature", "properties": { "OBJECTID": 34, "NAME_OF_SITE": "Houseman Recreation Center", "ADDRESS": "Summerdale & Godfrey St ", "ZIP": "19124", "PHONE": "215-685-1240", "label": "Location" }, "geometry": { "type": "Point", "coordinates": [ -75.093207006941398, 40.030713667431499 ] } },
{ "type": "Feature", "properties": { "OBJECTID": 35, "NAME_OF_SITE": "Kingsessing Recreation Center", "ADDRESS": "50th Street & Kingsessing Ave ", "ZIP": "19143", "PHONE": "215-685-2697", "label": "Location" }, "geometry": { "type": "Point", "coordinates": [ -75.216510327867894, 39.942203675980899 ] } },
{ "type": "Feature", "properties": { "OBJECTID": 36, "NAME_OF_SITE": "Lawncrest Recreation Center", "ADDRESS": "Rising Sun & Comly Avenues ", "ZIP": "19111", "PHONE": "215-685-0597", "label": "Location" }, "geometry": { "type": "Point", "coordinates": [ -75.101084397295097, 40.0450429286145 ] } },
{ "type": "Feature", "properties": { "OBJECTID": 37, "NAME_OF_SITE": "Lee Cultural Center", "ADDRESS": "44th & Haverford Avenue ", "ZIP": "19104", "PHONE": "215-685-7655", "label": "Location" }, "geometry": { "type": "Point", "coordinates": [ -75.210561905484795, 39.962580591125104 ] } },
{ "type": "Feature", "properties": { "OBJECTID": 38, "NAME_OF_SITE": "Lonnie Young Recreation Center", "ADDRESS": "Chelten & Ardleigh Streets ", "ZIP": "19138", "PHONE": "215-685-2236", "label": "Location" }, "geometry": { "type": "Point", "coordinates": [ -75.160531354134207, 40.049673464881501 ] } },
{ "type": "Feature", "properties": { "OBJECTID": 39, "NAME_OF_SITE": "Lower Mayfair Playground", "ADDRESS": "Robbins & Hawthorne Streets ", "ZIP": "19135", "PHONE": "215-685-1227", "label": "Location" }, "geometry": { "type": "Point", "coordinates": [ -75.060848444428004, 40.028987530677803 ] } },
{ "type": "Feature", "properties": { "OBJECTID": 40, "NAME_OF_SITE": "Mallery Recreation Center", "ADDRESS": "Morton & Johnson Streets ", "ZIP": "19144", "PHONE": "215-685-2234", "label": "Location" }, "geometry": { "type": "Point", "coordinates": [ -75.180258248945805, 40.047808523153797 ] } },
{ "type": "Feature", "properties": { "OBJECTID": 41, "NAME_OF_SITE": "Mander Playground", "ADDRESS": "2140 N. 33rd Street ", "ZIP": "19121", "PHONE": "215-685-3894", "label": "Location" }, "geometry": { "type": "Point", "coordinates": [ -75.186989436959706, 39.9893249530978 ] } },
{ "type": "Feature", "properties": { "OBJECTID": 42, "NAME_OF_SITE": "Marion Anderson Recreation Ctr", "ADDRESS": "17th & Fitzwater Streets ", "ZIP": "19146", "PHONE": "215-685-6594", "label": "Location" }, "geometry": { "type": "Point", "coordinates": [ -75.170739965040497, 39.942424512784903 ] } },
{ "type": "Feature", "properties": { "OBJECTID": 43, "NAME_OF_SITE": "Markward Playground", "ADDRESS": "Taney & Pine Streets ", "ZIP": "19102", "PHONE": "215-685-6649", "label": "Location" }, "geometry": { "type": "Point", "coordinates": [ -75.183465439976601, 39.946935000638 ] } },
{ "type": "Feature", "properties": { "OBJECTID": 44, "NAME_OF_SITE": "Max Myers Playground", "ADDRESS": "Oakland & Magee Sts. ", "ZIP": "19149", "PHONE": "215-685-1242", "label": "Location" }, "geometry": { "type": "Point", "coordinates": [ -75.070028350618401, 40.039148394280197 ] } },
{ "type": "Feature", "properties": { "OBJECTID": 45, "NAME_OF_SITE": "McCreesh Playground", "ADDRESS": "6744 Regent Street ", "ZIP": "19142", "PHONE": "215-685-2696", "label": "Location" }, "geometry": { "type": "Point", "coordinates": [ -75.240857320031196, 39.926059135566902 ] } },
{ "type": "Feature", "properties": { "OBJECTID": 46, "NAME_OF_SITE": "McVeigh Recreation Center", "ADDRESS": "D & Ontario Streets ", "ZIP": "19124", "PHONE": "215-685-9896", "label": "Location" }, "geometry": { "type": "Point", "coordinates": [ -75.120611342990401, 40.0006047299211 ] } },
{ "type": "Feature", "properties": { "OBJECTID": 47, "NAME_OF_SITE": "Mill Creek Playground", "ADDRESS": "44th & Aspen Streets ", "ZIP": "19139", "PHONE": "215-685-0260", "label": "Location" }, "geometry": { "type": "Point", "coordinates": [ -75.210956297826201, 39.965644650760503 ] } },
{ "type": "Feature", "properties": { "OBJECTID": 48, "NAME_OF_SITE": "Mitchell Playground", "ADDRESS": "Morrell & Crown Streets ", "ZIP": "19114", "PHONE": "215-685-9394", "label": "Location" }, "geometry": { "type": "Point", "coordinates": [ -74.988341886193993, 40.0678015916275 ] } },
{ "type": "Feature", "properties": { "OBJECTID": 49, "NAME_OF_SITE": "M.L. King Recreation Center", "ADDRESS": "2101 Cecil B. Moore Ave. ", "ZIP": "19121", "PHONE": "215-685-2733", "label": "Location" }, "geometry": { "type": "Point", "coordinates": [ -75.170084188241802, 39.980315814243198 ] } },
{ "type": "Feature", "properties": { "OBJECTID": 50, "NAME_OF_SITE": "Morris Estate Recreation Center", "ADDRESS": "1610 East Chelten ", "ZIP": "19126", "PHONE": "215-685-2891", "label": "Location" }, "geometry": { "type": "Point", "coordinates": [ -75.158107553938095, 40.051914231449999 ] } },
{ "type": "Feature", "properties": { "OBJECTID": 51, "NAME_OF_SITE": "Nelson Playground", "ADDRESS": "2500-34 N. 3rd Street ", "ZIP": "19133", "PHONE": "215-685-9890", "label": "Location" }, "geometry": { "type": "Point", "coordinates": [ -75.138076635390306, 39.988698482506699 ] } },
{ "type": "Feature", "properties": { "OBJECTID": 52, "NAME_OF_SITE": "Northern Liberties R.C.", "ADDRESS": "321 Fairmount Avenue ", "ZIP": "19123", "PHONE": "215-686-1785", "label": "Location" }, "geometry": { "type": "Point", "coordinates": [ -75.143756194080098, 39.962568654006901 ] } },
{ "type": "Feature", "properties": { "OBJECTID": 53, "NAME_OF_SITE": "Olney Recreation Center", "ADDRESS": "A & Champlost Sts. ", "ZIP": "19120", "PHONE": "215-685-2889", "label": "Location" }, "geometry": { "type": "Point", "coordinates": [ -75.118446913772999, 40.041212429768699 ] } },
{ "type": "Feature", "properties": { "OBJECTID": 54, "NAME_OF_SITE": "Palmer Playground", "ADDRESS": "Thornton & Comly ", "ZIP": "19154", "PHONE": "215-685-0371", "label": "Location" }, "geometry": { "type": "Point", "coordinates": [ -74.991267517887096, 40.095787299042598 ] } },
{ "type": "Feature", "properties": { "OBJECTID": 55, "NAME_OF_SITE": "Palumbo Recreation Ctr.", "ADDRESS": "10th & Fitzwater Sts. ", "ZIP": "19147", "PHONE": "215-686-1783", "label": "Location" }, "geometry": { "type": "Point", "coordinates": [ -75.159034363522807, 39.940967888886497 ] } },
{ "type": "Feature", "properties": { "OBJECTID": 56, "NAME_OF_SITE": "Papa Playground", "ADDRESS": "6839 Lansdowne Avenue ", "ZIP": "19151", "PHONE": "215-685-0141", "label": "Location" }, "geometry": { "type": "Point", "coordinates": [ -75.257172369167705, 39.9740979730406 ] } },
{ "type": "Feature", "properties": { "OBJECTID": 57, "NAME_OF_SITE": "Pelbano Recreation Ctr", "ADDRESS": "Bustleton & Solly Avenue", "ZIP": "19152", "PHONE": "215-683-1975", "label": "Location" }, "geometry": { "type": "Point", "coordinates": [ -75.051687209063601, 40.063150529807402 ] } },
{ "type": "Feature", "properties": { "OBJECTID": 58, "NAME_OF_SITE": "Penrose Playground", "ADDRESS": "1101 W. Susquehanna Ave. ", "ZIP": "19122", "PHONE": "215-685-2711", "label": "Location" }, "geometry": { "type": "Point", "coordinates": [ -75.151711837531195, 39.985756781997097 ] } },
{ "type": "Feature", "properties": { "OBJECTID": 59, "NAME_OF_SITE": "Ramp Playground", "ADDRESS": "3300 Solly Avenue ", "ZIP": "19136", "PHONE": "215-685-8746", "label": "Location" }, "geometry": { "type": "Point", "coordinates": [ -75.024160109355805, 40.048500432955599 ] } },
{ "type": "Feature", "properties": { "OBJECTID": 60, "NAME_OF_SITE": "Rivera Recreation Center", "ADDRESS": "3201 N. 5th Street ", "ZIP": "19140", "PHONE": "215-685-9887", "label": "Location" }, "geometry": { "type": "Point", "coordinates": [ -75.138286709804404, 40.000578929451599 ] } },
{ "type": "Feature", "properties": { "OBJECTID": 61, "NAME_OF_SITE": "Roosevelt Playground", "ADDRESS": "6455 Walker Street ", "ZIP": "19135", "PHONE": "215-685-8754", "label": "Location" }, "geometry": { "type": "Point", "coordinates": [ -75.054052162515703, 40.026317880451799 ] } },
{ "type": "Feature", "properties": { "OBJECTID": 62, "NAME_OF_SITE": "Sayre-Morris Rec.Center", "ADDRESS": "5835 Spruce Street ", "ZIP": "19139", "PHONE": "215-685-1994", "label": "Location" }, "geometry": { "type": "Point", "coordinates": [ -75.238946435534302, 39.956263673454799 ] } },
{ "type": "Feature", "properties": { "OBJECTID": 63, "NAME_OF_SITE": "Shepard Recreation Ctr", "ADDRESS": "57th & Haverford Avenue ", "ZIP": "19131", "PHONE": "215-685-1992", "label": "Location" }, "geometry": { "type": "Point", "coordinates": [ -75.233732679073398, 39.968002035088297 ] } },
{ "type": "Feature", "properties": { "OBJECTID": 64, "NAME_OF_SITE": "Shissler Recreation Ctr", "ADDRESS": "1800 Blair ", "ZIP": "19125", "PHONE": "215-685-9888", "label": "Location" }, "geometry": { "type": "Point", "coordinates": [ -75.132133761970195, 39.977440384286197 ] } },
{ "type": "Feature", "properties": { "OBJECTID": 65, "NAME_OF_SITE": "Simpson Recreation Ctr", "ADDRESS": "1010 Arrot St. ", "ZIP": "19124", "PHONE": "215-685-1223", "label": "Location" }, "geometry": { "type": "Point", "coordinates": [ -75.092246641479704, 40.021476237844702 ] } },
{ "type": "Feature", "properties": { "OBJECTID": 66, "NAME_OF_SITE": "Simons Recreation Ctr.", "ADDRESS": "7200 Woolston Street ", "ZIP": "19138", "PHONE": "215-685-3551", "label": "Location" }, "geometry": { "type": "Point", "coordinates": [ -75.156749709538502, 40.061635321049998 ] } },
{ "type": "Feature", "properties": { "OBJECTID": 67, "NAME_OF_SITE": "Smith Playground", "ADDRESS": "2100 S. 24th Street ", "ZIP": "19145", "PHONE": "215-685-1898", "label": "Location" }, "geometry": { "type": "Point", "coordinates": [ -75.186135663360204, 39.925848504709698 ] } },
{ "type": "Feature", "properties": { "OBJECTID": 68, "NAME_OF_SITE": "Starr Garden Playground", "ADDRESS": "6th & Lombard Streets ", "ZIP": "19147", "PHONE": "215-686-1782", "label": "Location" }, "geometry": { "type": "Point", "coordinates": [ -75.152120740475198, 39.943033866993197 ] } },
{ "type": "Feature", "properties": { "OBJECTID": 69, "NAME_OF_SITE": "Stenton Park Playground", "ADDRESS": "17th & Courtland Streets ", "ZIP": "19140", "PHONE": "215-685-9147", "label": "Location" }, "geometry": { "type": "Point", "coordinates": [ -75.153038515117402, 40.023593091270698 ] } },
{ "type": "Feature", "properties": { "OBJECTID": 70, "NAME_OF_SITE": "Sturgis Playground", "ADDRESS": "65th & 2nd Street ", "ZIP": "19126", "PHONE": "215-685-2877", "label": "Location" }, "geometry": { "type": "Point", "coordinates": [ -75.122778781900806, 40.049622384850103 ] } },
{ "type": "Feature", "properties": { "OBJECTID": 71, "NAME_OF_SITE": "Towey Playground", "ADDRESS": "Howard & Berks Streets ", "ZIP": "19125", "PHONE": "215-685-9892", "label": "Location" }, "geometry": { "type": "Point", "coordinates": [ -75.134566115676805, 39.978789976241202 ] } },
{ "type": "Feature", "properties": { "OBJECTID": 72, "NAME_OF_SITE": "Tustin Recreation Center", "ADDRESS": "60th St. & Columbia Ave. ", "ZIP": "19131", "PHONE": "215-685-0258", "label": "Location" }, "geometry": { "type": "Point", "coordinates": [ -75.241230150265395, 39.9812391061771 ] } },
{ "type": "Feature", "properties": { "OBJECTID": 73, "NAME_OF_SITE": "Vare Recreation Center", "ADDRESS": "26th & Morris Streets ", "ZIP": "19145", "PHONE": "215-685-1876", "label": "Location" }, "geometry": { "type": "Point", "coordinates": [ -75.188373266163595, 39.931815807939103 ] } },
{ "type": "Feature", "properties": { "OBJECTID": 74, "NAME_OF_SITE": "Vote Recreation Center", "ADDRESS": "4131 Unruh Ave ", "ZIP": "19135", "PHONE": "215-685-8753", "label": "Location" }, "geometry": { "type": "Point", "coordinates": [ -75.051375335660893, 40.029819794831198 ] } },
{ "type": "Feature", "properties": { "OBJECTID": 75, "NAME_OF_SITE": "Water Tower Rec. Center", "ADDRESS": "209 E. Hartwell Lane ", "ZIP": "19118", "PHONE": "215-685-9296", "label": "Location" }, "geometry": { "type": "Point", "coordinates": [ -75.201215488665198, 40.074730298692202 ] } },
{ "type": "Feature", "properties": { "OBJECTID": 76, "NAME_OF_SITE": "West Mill Creek Plgd.", "ADDRESS": "51st & Reno Streets ", "ZIP": "19104", "PHONE": "215-685-0186", "label": "Location" }, "geometry": { "type": "Point", "coordinates": [ -75.222423877912703, 39.966497529543197 ] } },
{ "type": "Feature", "properties": { "OBJECTID": 77, "NAME_OF_SITE": "Wharton Square Plgd.", "ADDRESS": "23rd & Wharton Streets ", "ZIP": "19146", "PHONE": "215-685-1888", "label": "Location" }, "geometry": { "type": "Point", "coordinates": [ -75.182287898858604, 39.936041715547702 ] } },
{ "type": "Feature", "properties": { "OBJECTID": 78, "NAME_OF_SITE": "Wright James Rec.", "ADDRESS": "3320-50 Haverford Ave ", "ZIP": "19104", "PHONE": "215-685-7686", "label": "Location" }, "geometry": { "type": "Point", "coordinates": [ -75.190741035954403, 39.964103761040498 ] } }
]
}
